[
  {
    "id": "sa_national_gbv_hotline",
    "name": "South African National GBV Command Centre",
    "type": "hotline",
    "contact": "0800 428 428",
    "region": "National",
    "hours": "24/7",
    "description": "Emergency hotline for survivors of GBV. Offers counselling and immediate assistance.",
    "isEmergency": true,
    "url": ""
  },
  {
    "id": "lifeline_sa_national",
    "name": "Lifeline South Africa",
    "type": "organization",
    "contact": "0861 322 322",
    "region": "National",
    "hours": "24/7",
    "description": "Emotional support for trauma, abuse, and crisis situations across South Africa.",
    "isEmergency": false,
    "url": "https://lifelinesa.co.za"
  },
  {
    "id": "tears_sa_national",
    "name": "TEARS Foundation",
    "type": "organization",
    "contact": "*134*7355#",
    "region": "National",
    "hours": "24/7 USSD",
    "description": "Provides access to crisis intervention, counselling and support for GBV survivors through mobile channels.",
    "isEmergency": false,
    "url": "https://tears.co.za"
  },
  {
    "id": "legal_aid_sa_national",
    "name": "Legal Aid South Africa",
    "type": "legal",
    "contact": "0800 110 110",
    "region": "National",
    "hours": "Weekdays 9am–4pm",
    "description": "Free legal support for vulnerable groups, including survivors of domestic and gender-based violence.",
    "isEmergency": false,
    "url": "https://legal-aid.co.za"
  },
  {
    "id": "gbv_shelter_gauteng_01",
    "name": "Safe Haven Shelter Johannesburg",
    "type": "shelter",
    "contact": "011 555 0123",
    "region": "Gauteng",
    "hours": "24/7",
    "description": "Emergency accommodation and psychosocial support for GBV survivors in the Johannesburg area.",
    "isEmergency": true,
    "url": ""
  },
  {
    "id": "health_clinic_gauteng_01",
    "name": "Johannesburg Central Health Clinic",
    "type": "health",
    "contact": "011 555 0987",
    "region": "Gauteng",
    "hours": "Mon–Fri 8am–5pm",
    "description": "Provides medical care, forensic examinations and counselling referrals for GBV cases.",
    "isEmergency": false,
    "url": ""
  },
  {
    "id": "gbv_shelter_wc_01",
    "name": "Safer Places Shelter Cape Town",
    "type": "shelter",
    "contact": "021 555 0123",
    "region": "Western Cape",
    "hours": "24/7",
    "description": "Safe housing and support services for survivors needing emergency relocation in Cape Town.",
    "isEmergency": true,
    "url": ""
  },
  {
    "id": "health_center_wc_01",
    "name": "Cape Town Red Cross Health Centre",
    "type": "health",
    "contact": "021 123 9876",
    "region": "Western Cape",
    "hours": "Mon–Fri 8am–5pm",
    "description": "Offers medical treatment, trauma support and referrals for GBV survivors.",
    "isEmergency": false,
    "url": ""
  },
  {
    "id": "gbv_org_kzn_01",
    "name": "KwaZulu-Natal GBV Support Network",
    "type": "organization",
    "contact": "031 555 2211",
    "region": "KwaZulu-Natal",
    "hours": "Mon–Fri 9am–4pm",
    "description": "Community-based organisation offering counselling, court support and referrals in KZN.",
    "isEmergency": false,
    "url": ""
  },
  {
    "id": "gbv_hotline_kzn_01",
    "name": "KZN GBV Helpline",
    "type": "hotline",
    "contact": "0800 123 456",
    "region": "KwaZulu-Natal",
    "hours": "24/7",
    "description": "Confidential telephone support for people affected by GBV in KZN.",
    "isEmergency": true,
    "url": ""
  },
  {
    "id": "sa_national_gbv_hotline",
    "name": "South African National GBV Command Centre",
    "type": "hotline",
    "contact": "0800 428 428",
    "region": "National",
    "hours": "24/7",
    "description": "Emergency hotline for survivors of GBV. Offers counselling and immediate assistance.",
    "isEmergency": true,
    "url": ""
  },
  {
    "id": "lifeline_sa",
    "name": "Lifeline South Africa",
    "type": "organization",
    "contact": "0861 322 322",
    "region": "National",
    "hours": "24/7",
    "description": "Emotional and trauma support for abuse, mental health and crisis intervention.",
    "isEmergency": false,
    "url": "https://lifelinesa.co.za"
  },
  {
    "id": "tears_foundation",
    "name": "TEARS Foundation",
    "type": "organization",
    "contact": "*134*7355#",
    "region": "National",
    "hours": "24/7 USSD",
    "description": "Provides crisis intervention, counselling and directory of support services via mobile.",
    "isEmergency": false,
    "url": "https://tears.co.za"
  },
  {
    "id": "legal_aid_sa",
    "name": "Legal Aid South Africa",
    "type": "legal",
    "contact": "0800 110 110",
    "region": "National",
    "hours": "Weekdays 9am–4pm",
    "description": "Provides free legal help for vulnerable individuals including GBV survivors.",
    "isEmergency": false,
    "url": "https://legal-aid.co.za"
  },
  {
    "id": "people_opposing_women_abuse",
    "name": "POWA (People Opposing Women Abuse)",
    "type": "organization",
    "contact": "011 642 4345",
    "region": "Gauteng",
    "hours": "Mon–Fri 8am–4pm",
    "description": "Provides shelters, counselling, legal support and advocacy for GBV survivors.",
    "isEmergency": false,
    "url": "https://www.powa.co.za"
  },
  {
    "id": "shelter_gauteng_01",
    "name": "Safe Haven Johannesburg",
    "type": "shelter",
    "contact": "011 555 0123",
    "region": "Gauteng",
    "hours": "24/7",
    "description": "Emergency accommodation and psychosocial support for survivors in Johannesburg.",
    "isEmergency": true,
    "url": ""
  },
  {
    "id": "health_clinic_gauteng_01",
    "name": "Johannesburg Central Health Clinic",
    "type": "health",
    "contact": "011 555 0987",
    "region": "Gauteng",
    "hours": "Mon–Fri 8am–5pm",
    "description": "Provides medical care, forensic exams and trauma support for GBV cases.",
    "isEmergency": false,
    "url": ""
  },
  {
    "id": "cape_town_shelter_01",
    "name": "Safer Places Cape Town Shelter",
    "type": "shelter",
    "contact": "021 555 0123",
    "region": "Western Cape",
    "hours": "24/7",
    "description": "Safe housing and GBV survivor support services in Cape Town.",
    "isEmergency": true,
    "url": ""
  },
  {
    "id": "cape_town_health_01",
    "name": "Cape Town Red Cross Health Centre",
    "type": "health",
    "contact": "021 123 9876",
    "region": "Western Cape",
    "hours": "Mon–Fri 8am–5pm",
    "description": "Provides medical treatment, counselling and referrals for GBV survivors.",
    "isEmergency": false,
    "url": ""
  },
  {
    "id": "kzn_gbv_network",
    "name": "KwaZulu-Natal GBV Support Network",
    "type": "organization",
    "contact": "031 555 2211",
    "region": "KwaZulu-Natal",
    "hours": "Mon–Fri 9am–4pm",
    "description": "Community-based network offering counselling and court support in KZN.",
    "isEmergency": false,
    "url": ""
  },
  {
    "id": "kzn_gbv_hotline",
    "name": "KZN GBV Helpline",
    "type": "hotline",
    "contact": "0800 123 456",
    "region": "KwaZulu-Natal",
    "hours": "24/7",
    "description": "Confidential, province-wide GBV support hotline.",
    "isEmergency": true,
    "url": ""
  },
  {
    "id": "ecape_support_centre_01",
    "name": "Eastern Cape Support Centre",
    "type": "organization",
    "contact": "043 111 2222",
    "region": "Eastern Cape",
    "hours": "Mon–Fri 8am–4pm",
    "description": "Counselling and GBV awareness programmes in Eastern Cape.",
    "isEmergency": false,
    "url": ""
  },
  {
    "id": "ecape_shelter_01",
    "name": "Eastern Cape Safe House",
    "type": "shelter",
    "contact": "043 999 1122",
    "region": "Eastern Cape",
    "hours": "24/7",
    "description": "Emergency shelter for women and children.",
    "isEmergency": true,
    "url": ""
  },
  {
    "id": "limpopo_support_line_01",
    "name": "Limpopo GBV Support Line",
    "type": "hotline",
    "contact": "015 555 7788",
    "region": "Limpopo",
    "hours": "24/7",
    "description": "A provincial hotline for GBV crisis response.",
    "isEmergency": true,
    "url": ""
  },
  {
    "id": "mpumalanga_support_org_01",
    "name": "Mpumalanga Survivors Support",
    "type": "organization",
    "contact": "013 555 0099",
    "region": "Mpumalanga",
    "hours": "Mon–Fri 8am–4pm",
    "description": "Community support and legal referrals for GBV survivors.",
    "isEmergency": false,
    "url": ""
  },
  {
    "id": "northwest_safehouse_01",
    "name": "North West Safehouse",
    "type": "shelter",
    "contact": "018 555 8877",
    "region": "North West",
    "hours": "24/7",
    "description": "A secure shelter offering emergency placement.",
    "isEmergency": true,
    "url": ""
  },
  {
    "id": "northern_cape_support_org_01",
    "name": "Northern Cape GBV Support Centre",
    "type": "organization",
    "contact": "053 555 7755",
    "region": "Northern Cape",
    "hours": "Mon–Fri 9am–3pm",
    "description": "Provides counselling, legal information and safe referrals.",
    "isEmergency": false,
    "url": ""
  },
  {
    "id": "africa_gender_rights_org",
    "name": "Africa Gender Rights Initiative",
    "type": "organization",
    "contact": "+27 11 555 9000",
    "region": "Africa",
    "hours": "Mon–Fri 8am–5pm",
    "description": "Continental non-profit supporting gender justice and rights.",
    "isEmergency": false,
    "url": "https://gender-rights.org"
  },
  {
    "id": "international_womens_aid",
    "name": "International Women's Aid",
    "type": "organization",
    "contact": "+1 800 555 9191",
    "region": "International",
    "hours": "24/7",
    "description": "Global crisis support and referral network for survivors of violence.",
    "isEmergency": true,
    "url": "https://internationalwomensaid.org"
  }
]
